ms_today;input_voltage;temp_mos_max;temp_mos_1;temp_mos_2;temp_mos_3;temp_motor;current_motor;current_in;d_axis_current;q_axis_current;erpm;duty_cycle;amp_hours_used;amp_hours_charged;watt_hours_used;watt_hours_charged;tachometer;tachometer_abs;encoder_position;fault_code;vesc_id;d_axis_voltage;q_axis_voltage;ms_today_setup;amp_hours_setup;amp_hours_charged_setup;watt_hours_setup;watt_hours_charged_setup;battery_level;battery_wh_tot;current_in_setup;current_motor_setup;speed_meters_per_sec;tacho_meters;tacho_abs_meters;num_vescs;ms_today_imu;roll;pitch;yaw;accX;accY;accZ;gyroX;gyroY;gyroZ;gnss_posTime;gnss_lat;gnss_lon;gnss_alt;gnss_gVel;gnss_vVel;gnss_hAcc;gnss_vAcc;
23753377;57.3;19.4;0;0;0;16.6;0;0;0;0;0;0;0;0;0;0;-2;2;54;0;99;0;0;23737591;0;0;0;0;0;0;0;0;0;0;0;1;-1;0;0;0;0;0;0;0;0;0;23753272;54.69462570;25.25053080;131.70001221;0.00000000;0.00000000;1622.20898438;323.12759399;
23753512;57.2;19.4;0;0;0;16.6;0;0;0;0;0;0;0;0;0;0;-2;2;54;0;99;0;0.001;23753464;0;0;0;0;0.912;578.681;0;0;0;-0.013;0.013;1;23753465;0;0;0;0;0;0;0;0;0;23753272;54.69462570;25.25053080;131.70001221;0.00000000;0.00000000;1622.20898438;323.12759399;
23753705;57.3;19.4;0;0;0;16.7;0;0;0;0;0;0;0;0;0;0;-2;2;54;0;99;0;0;23753657;0;0;0;0;0.912;578.733;0;0;0;-0.013;0.013;1;23753657;0;0;0;0;0;0;0;0;0;23753272;54.69462570;25.25053080;131.70001221;0.00000000;0.00000000;1622.20898438;323.12759399;
23753851;57.3;19.4;0;0;0;16.8;0;0;0;0;0;0;0;0;0;0;-2;2;54;0;99;-0.001;0;23753803;0;0;0;0;0.912;578.768;0;0;0;-0.013;0.013;1;23753803;0;0;0;0;0;0;0;0;0;23753272;54.69462570;25.25053080;131.70001221;0.00000000;0.00000000;1622.20898438;323.12759399;
23754000;57.2;19.4;0;0;0;16.7;0;0;0;0;0;0;0;0;0;0;-2;2;54;0;99;-0.001;0;23753950;0;0;0;0;0.912;578.815;0;0;0;-0.013;0.013;1;23753950;0;0;0;0;0;0;0;0;0;23753272;54.69462570;25.25053080;131.70001221;0.00000000;0.00000000;1622.20898438;323.12759399;
23754099;57.3;19.5;0;0;0;16.6;0;0;0;0;0;0;0;0;0;0;-2;2;54;0;99;0;0;23754096;0;0;0;0;0.912;578.797;0;0;0;-0.013;0.013;1;23754096;0;0;0;0;0;0;0;0;0;23753272;54.69462570;25.25053080;131.70001221;0.00000000;0.00000000;1622.20898438;323.12759399;
23754244;57.2;19.4;0;0;0;16.7;0;0;0;0;0;0;0;0;0;0;-2;2;54;0;99;0;0;23754096;0;0;0;0;0.912;578.797;0;0;0;-0.013;0.013;1;23754096;0;0;0;0;0;0;0;0;0;23753272;54.69462570;25.25053080;131.70001221;0.00000000;0.00000000;1622.20898438;323.12759399;
23754439;57.3;19.4;0;0;0;16.7;0;0;0;0;0;0;0;0;0;0;-2;2;54;0;99;0;0;23754244;0;0;0;0;0.912;578.817;0;0;0;-0.013;0.013;1;23754374;0;0;0;0;0;0;0;0;0;23753272;54.69462570;25.25053080;131.70001221;0.00000000;0.00000000;1622.20898438;323.12759399;
23754592;57.2;19.4;0;0;0;16.7;0;0;0;0;0;0;0;0;0;0;-2;2;54;0;99;0;0;23754439;0;0;0;0;0.912;578.863;0;0;0;-0.013;0.013;1;23754585;0;0;0;0;0;0;0;0;0;23753272;54.69462570;25.25053080;131.70001221;0.00000000;0.00000000;1622.20898438;323.12759399;
23754783;57.3;19.5;0;0;0;16.7;0;0;0;0;0;0;0;0;0;0;-2;2;54;0;99;0;0;23754592;0;0;0;0;0.912;578.82;0;0;0;-0.013;0.013;1;23754733;0;0;0;0;0;0;0;0;0;23754695;54.69462740;25.25053060;131.70001221;0.00000000;0.00000000;20.00000000;1.60825777;
23754882;57.2;19.4;0;0;0;16.7;0;0;0;0;0;0;0;0;0;0;-2;2;54;0;99;-0.001;0;23754784;0;0;0;0;0.912;578.795;0;0;0;-0.013;0.013;1;23754834;0;0;0;0;0;0;0;0;0;23754695;54.69462740;25.25053060;131.70001221;0.00000000;0.00000000;20.00000000;1.60825777;
23754978;57.2;19.5;0;0;0;16.6;0;0;0;0;0;0;0;0;0;0;-2;2;54;0;99;-0.001;0.001;23754882;0;0;0;0;0.912;578.78;0;0;0;-0.013;0.013;1;23754944;0;0;0;0;0;0;0;0;0;23754695;54.69462740;25.25053060;131.70001221;0.00000000;0.00000000;20.00000000;1.60825777;
23755131;57.2;19.5;0;0;0;16.4;0;0;0;0;0;0;0;0;0;0;-2;2;54;0;99;-0.001;0.001;23754979;0;0;0;0;0.912;578.768;0;0;0;-0.013;0.013;1;23755027;0;0;0;0;0;0;0;0;0;23754695;54.69462740;25.25053060;131.70001221;0.00000000;0.00000000;20.00000000;1.60825777;
23755221;57.2;19.5;0;0;0;16.5;0;0;0;0;0;0;0;0;0;0;-2;2;54;0;99;-0.001;0.001;23755131;0;0;0;0;0.912;578.782;0;0;0;-0.013;0.013;1;23755132;0;0;0;0;0;0;0;0;0;23754695;54.69462740;25.25053060;131.70001221;0.00000000;0.00000000;20.00000000;1.60825777;
23755321;57.3;19.5;0;0;0;16.5;0;0;0;0;0;0;0;0;0;0;-2;2;54;0;99;0;0.001;23755224;0;0;0;0;0.912;578.749;0;0;0;-0.013;0.013;1;23755225;0;0;0;0;0;0;0;0;0;23754695;54.69462740;25.25053060;131.70001221;0.00000000;0.00000000;20.00000000;1.60825777;
23755442;57.3;19.4;0;0;0;16.6;0;0;0;0;0;0;0;0;0;0;-2;2;54;0;99;0;0.001;23755321;0;0;0;0;0.912;578.743;0;0;0;-0.013;0.013;1;23755368;0;0;0;0;0;0;0;0;0;23754695;54.69462740;25.25053060;131.70001221;0.00000000;0.00000000;20.00000000;1.60825777;
23755560;57.2;19.4;0;0;0;16.7;0;0;0;0;0;0;0;0;0;0;-2;2;54;0;99;0;0;23755442;0;0;0;0;0.912;578.714;0;0;0;-0.013;0.013;1;23755368;0;0;0;0;0;0;0;0;0;23754695;54.69462740;25.25053060;131.70001221;0.00000000;0.00000000;20.00000000;1.60825777;
23755706;57.3;19.5;0;0;0;16.7;0;0;0;0;0;0;0;0;0;0;-2;2;54;0;99;-0.001;0;23755563;0;0;0;0;0.912;578.677;0;0;0;-0.013;0.013;1;23755564;0;0;0;0;0;0;0;0;0;23754695;54.69462740;25.25053060;131.70001221;0.00000000;0.00000000;20.00000000;1.60825777;
23755805;57.2;19.5;0;0;0;16.7;0;0;0;0;0;0;0;0;0;0;-2;2;54;0;99;0;0;23755709;0;0;0;0;0.912;578.705;0;0;0;-0.013;0.013;1;23755709;0;0;0;0;0;0;0;0;0;23754695;54.69462740;25.25053060;131.70001221;0.00000000;0.00000000;20.00000000;1.60825777;
23755950;57.3;19.4;0;0;0;16.7;0;0;0;0;0;0;0;0;0;0;-2;2;54;0;99;0;0;23755808;0;0;0;0;0.912;578.703;0;0;0;-0.013;0.013;1;23755808;0;0;0;0;0;0;0;0;0;23754695;54.69462740;25.25053060;131.70001221;0.00000000;0.00000000;20.00000000;1.60825777;
23756095;57.2;19.5;0;0;0;16.6;0;0;0;0;0;0;0;0;0;0;-2;2;54;0;99;0;0;23755954;0;0;0;0;0.912;578.752;0;0;0;-0.013;0.013;1;23755954;0;0;0;0;0;0;0;0;0;23754695;54.69462740;25.25053060;131.70001221;0.00000000;0.00000000;20.00000000;1.60825777;
23756194;57.2;19.5;0;0;0;16.4;0;0;0;0;0;0;0;0;0;0;-2;2;54;0;99;0;0.001;23756095;0;0;0;0;0.912;578.758;0;0;0;-0.013;0.013;1;23756099;0;0;0;0;0;0;0;0;0;23754695;54.69462740;25.25053060;131.70001221;0.00000000;0.00000000;20.00000000;1.60825777;
23756294;57.2;19.5;0;0;0;16.4;0;0;0;0;0;0;0;0;0;0;-2;2;54;0;99;0;0.001;23756245;0;0;0;0;0.912;578.742;0;0;0;-0.013;0.013;1;23756246;0;0;0;0;0;0;0;0;0;23754695;54.69462740;25.25053060;131.70001221;0.00000000;0.00000000;20.00000000;1.60825777;
23756485;57.3;19.4;0;0;0;16.7;0;0;0;0;0;0;0;0;0;0;-2;2;54;0;99;0;0;23756392;0;0;0;0;0.912;578.697;0;0;0;-0.013;0.013;1;23756392;0;0;0;0;0;0;0;0;0;23754695;54.69462740;25.25053060;131.70001221;0.00000000;0.00000000;20.00000000;1.60825777;
23756586;57.2;19.4;0;0;0;16.7;0;0;0;0;0;0;0;0;0;0;-2;2;54;0;99;-0.001;0;23756538;0;0;0;0;0.912;578.706;0;0;0;-0.013;0.013;1;23756539;0;0;0;0;0;0;0;0;0;23754695;54.69462740;25.25053060;131.70001221;0.00000000;0.00000000;20.00000000;1.60825777;
23756683;57.3;19.5;0;0;0;16.6;0;0;0;0;0;0;0;0;0;0;-2;2;54;0;99;0;0;23756636;0;0;0;0;0.912;578.709;0;0;0;-0.013;0.013;1;23756636;0;0;0;0;0;0;0;0;0;23754695;54.69462740;25.25053060;131.70001221;0.00000000;0.00000000;20.00000000;1.60825777;
23756783;57.2;19.5;0;0;0;16.6;0;0;0;0;0;0;0;0;0;0;-2;2;54;0;99;0;0.001;23756781;0;0;0;0;0.912;578.687;0;0;0;-0.013;0.013;1;23756781;0;0;0;0;0;0;0;0;0;23754695;54.69462740;25.25053060;131.70001221;0.00000000;0.00000000;20.00000000;1.60825777;
23756877;57.3;19.5;0;0;0;16.4;0;0;0;0;0;0;0;0;0;0;-2;2;54;0;99;0;0.002;23756781;0;0;0;0;0.912;578.687;0;0;0;-0.013;0.013;1;23756781;0;0;0;0;0;0;0;0;0;23754695;54.69462740;25.25053060;131.70001221;0.00000000;0.00000000;20.00000000;1.60825777;
23756977;57.2;19.5;0;0;0;16.5;0;0;0;0;0;0;0;0;0;0;-2;2;54;0;99;0;0.001;23756884;0;0;0;0;0.912;578.705;0;0;0;-0.013;0.013;1;23756884;0;0;0;0;0;0;0;0;0;23754695;54.69462740;25.25053060;131.70001221;0.00000000;0.00000000;20.00000000;1.60825777;
23757073;57.3;19.4;0;0;0;16.6;0;0;0;0;0;0;0;0;0;0;-2;2;54;0;99;0;0;23756979;0;0;0;0;0.912;578.676;0;0;0;-0.013;0.013;1;23756980;0;0;0;0;0;0;0;0;0;23754695;54.69462740;25.25053060;131.70001221;0.00000000;0.00000000;20.00000000;1.60825777;
23757173;57.2;19.5;0;0;0;16.7;0;0;0;0;0;0;0;0;0;0;-2;2;54;0;99;0;0;23757078;0;0;0;0;0.912;578.694;0;0;0;-0.013;0.013;1;23757078;0;0;0;0;0;0;0;0;0;23754695;54.69462740;25.25053060;131.70001221;0.00000000;0.00000000;20.00000000;1.60825777;
23757270;57.4;19.5;0;0;0;16.7;0;0;0;0;0;0;0;0;0;0;-2;2;54;0;99;0;0;23757176;0;0;0;0;0.912;578.683;0;0;0;-0.013;0.013;1;23757176;0;0;0;0;0;0;0;0;0;23754695;54.69462740;25.25053060;131.70001221;0.00000000;0.00000000;20.00000000;1.60825777;
23757371;57.2;19.4;0;0;0;16.6;0;0;0;0;0;0;0;0;0;0;-2;2;54;0;99;0;0.001;23757274;0;0;0;0;0.912;578.717;0;0;0;-0.013;0.013;1;23757274;0;0;0;0;0;0;0;0;0;23754695;54.69462740;25.25053060;131.70001221;0.00000000;0.00000000;20.00000000;1.60825777;
23757466;57.2;19.5;0;0;0;16.7;0;0;0;0;0;0;0;0;0;0;-2;2;54;0;99;0;0;23757372;0;0;0;0;0.912;578.689;0;0;0;-0.013;0.013;1;23757372;0;0;0;0;0;0;0;0;0;23754695;54.69462740;25.25053060;131.70001221;0.00000000;0.00000000;20.00000000;1.60825777;
23757656;57.3;19.5;0;0;0;16.7;0;0;0;0;0;0;0;0;0;0;-2;2;54;0;99;0;0;23757467;0;0;0;0;0.912;578.711;0;0;0;-0.013;0.013;1;23757468;0;0;0;0;0;0;0;0;0;-1;0.00000000;0.00000000;0.00000000;0.00000000;0.00000000;0.00000000;0.00000000;
23757805;57.2;19.5;0;0;0;16.7;0;0;0;0;0;0;0;0;0;0;-2;2;54;0;99;0;0;23757659;0;0;0;0;0.912;578.679;0;0;0;-0.013;0.013;1;23757659;0;0;0;0;0;0;0;0;0;-1;0.00000000;0.00000000;0.00000000;0.00000000;0.00000000;0.00000000;0.00000000;
23758001;57.2;19.5;0;0;0;16.7;0;0;0;0;0;0;0;0;0;0;-2;2;54;0;99;0;0;23757806;0;0;0;0;0.912;578.662;0;0;0;-0.013;0.013;1;23757863;0;0;0;0;0;0;0;0;0;-1;0.00000000;0.00000000;0.00000000;0.00000000;0.00000000;0.00000000;0.00000000;
23758148;57.3;19.4;0;0;0;16.7;0;0;0;0;0;0;0;0;0;0;-2;2;54;0;99;0;0;23758003;0;0;0;0;0.912;578.723;0;0;0;-0.013;0.013;1;23758003;0;0;0;0;0;0;0;0;0;-1;0.00000000;0.00000000;0.00000000;0.00000000;0.00000000;0.00000000;0.00000000;
23758295;57.2;19.5;0;0;0;16.7;0;0;0;0;0;0;0;0;0;0;-2;2;54;0;99;0;0;23758152;0;0;0;0;0.912;578.747;0;0;0;-0.013;0.013;1;23758152;0;0;0;0;0;0;0;0;0;-1;0.00000000;0.00000000;0.00000000;0.00000000;0.00000000;0.00000000;0.00000000;
23758438;57.3;19.5;0;0;0;16.7;0;0;0;0;0;0;0;0;0;0;-2;2;54;0;99;0;0;23758296;0;0;0;0;0.912;578.747;0;0;0;-0.013;0.013;1;23758297;0;0;0;0;0;0;0;0;0;-1;0.00000000;0.00000000;0.00000000;0.00000000;0.00000000;0.00000000;0.00000000;
23758585;57.3;19.4;0;0;0;16.7;0;0;0;0;0;0;0;0;0;0;-2;2;54;0;99;-0.001;0;23758446;0;0;0;0;0.912;578.797;0;0;0;-0.013;0.013;1;23758446;0;0;0;0;0;0;0;0;0;-1;0.00000000;0.00000000;0.00000000;0.00000000;0.00000000;0.00000000;0.00000000;
23758682;57.2;19.5;0;0;0;16.7;0;0;0;0;0;0;0;0;0;0;-2;2;54;0;99;0;0;23758635;0;0;0;0;0.912;578.809;0;0;0;-0.013;0.013;1;23758635;0;0;0;0;0;0;0;0;0;-1;0.00000000;0.00000000;0.00000000;0.00000000;0.00000000;0.00000000;0.00000000;
23758785;57.3;19.5;0;0;0;16.6;0;0;0;0;0;0;0;0;0;0;-2;2;54;0;99;-0.001;0;23758784;0;0;0;0;0.912;578.783;0;0;0;-0.013;0.013;1;23758785;0;0;0;0;0;0;0;0;0;-1;0.00000000;0.00000000;0.00000000;0.00000000;0.00000000;0.00000000;0.00000000;
23758880;57.2;19.4;0;0;0;16.6;0;0;0;0;0;0;0;0;0;0;-2;2;54;0;99;0;0.001;23758784;0;0;0;0;0.912;578.783;0;0;0;-0.013;0.013;1;23758785;0;0;0;0;0;0;0;0;0;-1;0.00000000;0.00000000;0.00000000;0.00000000;0.00000000;0.00000000;0.00000000;
23758976;57.3;19.5;0;0;0;16.5;0;0;0;0;0;0;0;0;0;0;-2;2;54;0;99;0;0.002;23758881;0;0;0;0;0.912;578.763;0;0;0;-0.013;0.013;1;23758881;0;0;0;0;0;0;0;0;0;-1;0.00000000;0.00000000;0.00000000;0.00000000;0.00000000;0.00000000;0.00000000;
23759074;57.2;19.5;0;0;0;16.5;0;0;0;0;0;0;0;0;0;0;-2;2;54;0;99;0;0.002;23759071;0;0;0;0;0.912;578.75;0;0;0;-0.013;0.013;1;23759073;0;0;0;0;0;0;0;0;0;-1;0.00000000;0.00000000;0.00000000;0.00000000;0.00000000;0.00000000;0.00000000;
23759170;57.2;19.5;0;0;0;16.4;0;0;0;0;0;0;0;0;0;0;-2;2;54;0;99;0;0.002;23759071;0;0;0;0;0.912;578.75;0;0;0;-0.013;0.013;1;23759073;0;0;0;0;0;0;0;0;0;-1;0.00000000;0.00000000;0.00000000;0.00000000;0.00000000;0.00000000;0.00000000;
23759268;57.3;19.5;0;0;0;16.4;0;0;0;0;0;0;0;0;0;0;-2;2;54;0;99;0;0.002;23759174;0;0;0;0;0.912;578.757;0;0;0;-0.013;0.013;1;23759175;0;0;0;0;0;0;0;0;0;-1;0.00000000;0.00000000;0.00000000;0.00000000;0.00000000;0.00000000;0.00000000;
23759415;57.2;19.5;0;0;0;16.6;0;0;0;0;0;0;0;0;0;0;-2;2;54;0;99;0;0.002;23759270;0;0;0;0;0.912;578.727;0;0;0;-0.013;0.013;1;23759270;0;0;0;0;0;0;0;0;0;-1;0.00000000;0.00000000;0.00000000;0.00000000;0.00000000;0.00000000;0.00000000;
23759511;57.3;19.5;0;0;0;16.5;0;0;0;0;0;0;0;0;0;0;-2;2;54;0;99;0;0.002;23759416;0;0;0;0;0.912;578.733;0;0;0;-0.013;0.013;1;23759417;0;0;0;0;0;0;0;0;0;-1;0.00000000;0.00000000;0.00000000;0.00000000;0.00000000;0.00000000;0.00000000;
23759609;57.3;19.5;0;0;0;16.4;0;0;0;0;0;0;0;0;0;0;-2;2;54;0;99;0;0.002;23759515;0;0;0;0;0.912;578.675;0;0;0;-0.013;0.013;1;23759516;0;0;0;0;0;0;0;0;0;-1;0.00000000;0.00000000;0.00000000;0.00000000;0.00000000;0.00000000;0.00000000;
23759709;57.2;19.5;0;0;0;16.4;0;0;0;0;0;0;0;0;0;0;-2;2;54;0;99;0;0.001;23759615;0;0;0;0;0.912;578.712;0;0;0;-0.013;0.013;1;23759615;0;0;0;0;0;0;0;0;0;-1;0.00000000;0.00000000;0.00000000;0.00000000;0.00000000;0.00000000;0.00000000;
23759856;57.3;19.5;0;0;0;16.5;0;0;0;0;0;0;0;0;0;0;-2;2;54;0;99;0;0;23759709;0;0;0;0;0.912;578.688;0;0;0;-0.013;0.013;1;23759758;0;0;0;0;0;0;0;0;0;-1;0.00000000;0.00000000;0.00000000;0.00000000;0.00000000;0.00000000;0.00000000;
23759958;57.3;19.4;0;0;0;16.7;0;0;0;0;0;0;0;0;0;0;-2;2;54;0;99;0;0;23759904;0;0;0;0;0.912;578.682;0;0;0;-0.013;0.013;1;23759904;0;0;0;0;0;0;0;0;0;-1;0.00000000;0.00000000;0.00000000;0.00000000;0.00000000;0.00000000;0.00000000;
23760096;57.3;19.5;0;0;0;16.6;0;0;0;0;0;0;0;0;0;0;-2;2;54;0;99;-0.001;0.001;23760048;0;0;0;0;0.912;578.736;0;0;0;-0.013;0.013;1;23760048;0;0;0;0;0;0;0;0;0;-1;0.00000000;0.00000000;0.00000000;0.00000000;0.00000000;0.00000000;0.00000000;
23760296;57.2;19.4;0;0;0;16.4;0;0;0;0;0;0;0;0;0;0;-2;2;54;0;99;-0.001;0.001;23760247;0;0;0;0;0.912;578.747;0;0;0;-0.013;0.013;1;23760247;0;0;0;0;0;0;0;0;0;-1;0.00000000;0.00000000;0.00000000;0.00000000;0.00000000;0.00000000;0.00000000;
23760444;57.4;19.5;0;0;0;16.5;0;0;0;0;0;0;0;0;0;0;-2;2;54;0;99;-0.001;0;23760442;0;0;0;0;0.912;578.791;0;0;0;-0.013;0.013;1;23760442;0;0;0;0;0;0;0;0;0;23760047;54.69460250;25.25052538;108.12519083;0.00000000;0.00000000;4.00000000;162.97671509;
23760583;57.3;19.5;0;0;0;16.5;0;0;0;0;0;0;0;0;0;0;-2;2;54;0;99;0;0.001;23760442;0;0;0;0;0.912;578.791;0;0;0;-0.013;0.013;1;23760442;0;0;0;0;0;0;0;0;0;23760047;54.69460250;25.25052538;108.12519083;0.00000000;0.00000000;4.00000000;162.97671509;
23760680;57.3;19.5;0;0;0;16.5;0;0;0;0;0;0;0;0;0;0;-2;2;54;0;99;0;0.001;23760592;0;0;0;0;0.913;578.921;0;0;0;-0.013;0.013;1;23760593;0;0;0;0;0;0;0;0;0;23760047;54.69460250;25.25052538;108.12519083;0.00000000;0.00000000;4.00000000;162.97671509;
23760779;57.2;19.5;0;0;0;16.5;0;0;0;0;0;0;0;0;0;0;-2;2;54;0;99;0;0.001;23760695;0;0;0;0;0.913;578.977;0;0;0;-0.013;0.013;1;23760696;0;0;0;0;0;0;0;0;0;23760047;54.69460250;25.25052538;108.12519083;0.00000000;0.00000000;4.00000000;162.97671509;
23760890;57.3;19.5;0;0;0;16.4;0;0;0;0;0;0;0;0;0;0;-2;2;54;0;99;0;0.001;23760781;0;0;0;0;0.913;578.985;0;0;0;-0.013;0.013;1;23760781;0;0;0;0;0;0;0;0;0;23760047;54.69460250;25.25052538;108.12519083;0.00000000;0.00000000;4.00000000;162.97671509;
23761020;57.2;19.5;0;0;0;16.4;0;0;0;0;0;0;0;0;0;0;-2;2;54;0;99;0;0.001;23760890;0;0;0;0;0.913;578.999;0;0;0;-0.013;0.013;1;23760891;0;0;0;0;0;0;0;0;0;23760047;54.69460250;25.25052538;108.12519083;0.00000000;0.00000000;4.00000000;162.97671509;
23761119;57.4;19.5;0;0;0;16.5;0;0;0;0;0;0;0;0;0;0;-2;2;54;0;99;0;0.001;23761073;0;0;0;0;0.913;579.03;0;0;0;-0.013;0.013;1;23761073;0;0;0;0;0;0;0;0;0;23760047;54.69460250;25.25052538;108.12519083;0.00000000;0.00000000;4.00000000;162.97671509;
23761313;57.4;19.5;0;0;0;16.5;0;0;0;0;0;0;0;0;0;0;-2;2;54;0;99;-0.001;0.001;23761219;0;0;0;0;0.913;579.018;0;0;0;-0.013;0.013;1;23761219;0;0;0;0;0;0;0;0;0;23760047;54.69460250;25.25052538;108.12519083;0.00000000;0.00000000;4.00000000;162.97671509;
23761462;57.2;19.4;0;0;0;16.4;0;0;0;0;0;0;0;0;0;0;-2;2;54;0;99;0;0.001;23761317;0;0;0;0;0.913;579.04;0;0;0;-0.013;0.013;1;23761317;0;0;0;0;0;0;0;0;0;23761017;54.69461415;25.25049223;135.39428144;0.00000000;0.00000000;12.00000000;82.81710052;
23761561;57.3;19.5;0;0;0;16.5;0;0;0;0;0;0;0;0;0;0;-2;2;54;0;99;-0.001;0;23761465;0;0;0;0;0.913;579.112;0;0;0;-0.013;0.013;1;23761465;0;0;0;0;0;0;0;0;0;23761017;54.69461415;25.25049223;135.39428144;0.00000000;0.00000000;12.00000000;82.81710052;
23761659;57.3;19.5;0;0;0;16.6;0;0;0;0;0;0;0;0;0;0;-2;2;54;0;99;0;0;23761605;0;0;0;0;0.913;579.193;0;0;0;-0.013;0.013;1;23761605;0;0;0;0;0;0;0;0;0;23761017;54.69461415;25.25049223;135.39428144;0.00000000;0.00000000;12.00000000;82.81710052;
23761752;57.3;19.5;0;0;0;16.6;0;0;0;0;0;0;0;0;0;0;-2;2;54;0;99;-0.001;0;23761707;0;0;0;0;0.913;579.184;0;0;0;-0.013;0.013;1;23761707;0;0;0;0;0;0;0;0;0;23761017;54.69461415;25.25049223;135.39428144;0.00000000;0.00000000;12.00000000;82.81710052;
23761851;57.2;19.5;0;0;0;16.6;0;0;0;0;0;0;0;0;0;0;-2;2;54;0;99;0;0;23761803;0;0;0;0;0.913;579.187;0;0;0;-0.013;0.013;1;23761804;0;0;0;0;0;0;0;0;0;23761017;54.69461415;25.25049223;135.39428144;0.00000000;0.00000000;12.00000000;82.81710052;
23761954;57.3;19.4;0;0;0;16.7;0;0;0;0;0;0;0;0;0;0;-2;2;54;0;99;-0.001;0;23761904;0;0;0;0;0.913;579.137;0;0;0;-0.013;0.013;1;23761904;0;0;0;0;0;0;0;0;0;23761017;54.69461415;25.25049223;135.39428144;0.00000000;0.00000000;12.00000000;82.81710052;
23762056;57.2;19.5;0;0;0;16.6;0;0;0;0;0;0;0;0;0;0;-2;2;54;0;99;0;0.001;23762004;0;0;0;0;0.913;579.152;0;0;0;-0.013;0.013;1;23762005;0;0;0;0;0;0;0;0;0;23761017;54.69461415;25.25049223;135.39428144;0.00000000;0.00000000;12.00000000;82.81710052;
23762192;57.3;19.5;0;0;0;16.7;0;0;0;0;0;0;0;0;0;0;-2;2;54;0;99;0;0.001;23762145;0;0;0;0;0.913;579.157;0;0;0;-0.013;0.013;1;23762145;0;0;0;0;0;0;0;0;0;23761017;54.69461415;25.25049223;135.39428144;0.00000000;0.00000000;12.00000000;82.81710052;
23762387;57.3;19.5;0;0;0;16.7;0;0;0;0;0;0;0;0;0;0;-2;2;54;0;99;0;0.001;23762340;0;0;0;0;0.913;579.194;0;0;0;-0.013;0.013;1;23762340;0;0;0;0;0;0;0;0;0;23762045;54.69461310;25.25046833;125.92286452;0.00000000;0.00000000;12.00000000;20.12698746;
23762485;57.2;19.5;0;0;0;16.6;0;0;0;0;0;0;0;0;0;0;-2;2;54;0;99;0;0;23762340;0;0;0;0;0.913;579.194;0;0;0;-0.013;0.013;1;23762340;0;0;0;0;0;0;0;0;0;23762045;54.69461310;25.25046833;125.92286452;0.00000000;0.00000000;12.00000000;20.12698746;
23762581;57.3;19.5;0;0;0;16.7;0;0;0;0;0;0;0;0;0;0;-2;2;54;0;99;0;0.001;23762532;0;0;0;0;0.913;579.195;0;0;0;-0.013;0.013;1;23762533;0;0;0;0;0;0;0;0;0;23762045;54.69461310;25.25046833;125.92286452;0.00000000;0.00000000;12.00000000;20.12698746;
23762729;57.3;19.5;0;0;0;16.5;0;0;0;0;0;0;0;0;0;0;-2;2;54;0;99;0;0.001;23762681;0;0;0;0;0.913;579.2;0;0;0;-0.013;0.013;1;23762682;0;0;0;0;0;0;0;0;0;23762045;54.69461310;25.25046833;125.92286452;0.00000000;0.00000000;12.00000000;20.12698746;
23762874;57.2;19.5;0;0;0;16.5;0;0;0;0;0;0;0;0;0;0;-2;2;54;0;99;0;0.001;23762779;0;0;0;0;0.913;579.231;0;0;0;-0.013;0.013;1;23762780;0;0;0;0;0;0;0;0;0;23762045;54.69461310;25.25046833;125.92286452;0.00000000;0.00000000;12.00000000;20.12698746;
23762973;57.2;19.5;0;0;0;16.6;0;0;0;0;0;0;0;0;0;0;-2;2;54;0;99;-0.001;0.001;23762927;0;0;0;0;0.913;579.218;0;0;0;-0.013;0.013;1;23762927;0;0;0;0;0;0;0;0;0;23762045;54.69461310;25.25046833;125.92286452;0.00000000;0.00000000;12.00000000;20.12698746;
23763070;57.3;19.5;0;0;0;16.6;0;0;0;0;0;0;0;0;0;0;-2;2;54;0;99;0;0.002;23763022;0;0;0;0;0.913;579.181;0;0;0;-0.013;0.013;1;23763023;0;0;0;0;0;0;0;0;0;23762045;54.69461310;25.25046833;125.92286452;0.00000000;0.00000000;12.00000000;20.12698746;
23763168;57.3;19.6;0;0;0;16.5;0;0;0;0;0;0;0;0;0;0;-2;2;54;0;99;0;0.001;23763122;0;0;0;0;0.913;579.184;0;0;0;-0.013;0.013;1;23763122;0;0;0;0;0;0;0;0;0;23762045;54.69461310;25.25046833;125.92286452;0.00000000;0.00000000;12.00000000;20.12698746;
23763312;57.3;19.5;0;0;0;16.5;0;0;0;0;0;0;0;0;0;0;-2;2;54;0;99;-0.001;0.001;23763217;0;0;0;0;0.913;579.171;0;0;0;-0.013;0.013;1;23763218;0;0;0;0;0;0;0;0;0;23762045;54.69461310;25.25046833;125.92286452;0.00000000;0.00000000;12.00000000;20.12698746;
23763411;57.3;19.6;0;0;0;16.5;0;0;0;0;0;0;0;0;0;0;-2;2;54;0;99;0;0.001;23763361;0;0;0;0;0.913;579.141;0;0;0;-0.013;0.013;1;23763361;0;0;0;0;0;0;0;0;0;23763045;54.69462844;25.25039384;125.52180128;0.00000000;0.00000000;12.00000000;18.36003304;
23763510;57.3;19.5;0;0;0;16.5;0;0;0;0;0;0;0;0;0;0;-2;2;54;0;99;0;0.001;23763508;0;0;0;0;0.913;579.099;0;0;0;-0.013;0.013;1;23763509;0;0;0;0;0;0;0;0;0;23763045;54.69462844;25.25039384;125.52180128;0.00000000;0.00000000;12.00000000;18.36003304;
23763657;57.2;19.5;0;0;0;16.6;0;0;0;0;0;0;0;0;0;0;-2;2;54;0;99;0;0.001;23763508;0;0;0;0;0.913;579.099;0;0;0;-0.013;0.013;1;23763509;0;0;0;0;0;0;0;0;0;23763045;54.69462844;25.25039384;125.52180128;0.00000000;0.00000000;12.00000000;18.36003304;
23763753;57.3;19.4;0;0;0;16.6;0;0;0;0;0;0;0;0;0;0;-2;2;54;0;99;0;0.001;23763658;0;0;0;0;0.913;579.071;0;0;0;-0.013;0.013;1;23763659;0;0;0;0;0;0;0;0;0;23763045;54.69462844;25.25039384;125.52180128;0.00000000;0.00000000;12.00000000;18.36003304;
23763851;57.3;19.5;0;0;0;16.5;0;0;0;0;0;0;0;0;0;0;-2;2;54;0;99;0;0.002;23763802;0;0;0;0;0.913;579.093;0;0;0;-0.013;0.013;1;23763803;0;0;0;0;0;0;0;0;0;23763045;54.69462844;25.25039384;125.52180128;0.00000000;0.00000000;12.00000000;18.36003304;
23763950;57.3;19.6;0;0;0;16.4;0;0;0;0;0;0;0;0;0;0;-2;2;54;0;99;0;0.002;23763899;0;0;0;0;0.913;579.059;0;0;0;-0.013;0.013;1;23763950;0;0;0;0;0;0;0;0;0;23763045;54.69462844;25.25039384;125.52180128;0.00000000;0.00000000;12.00000000;18.36003304;
23764094;57.3;19.5;0;0;0;16.5;0;0;0;0;0;0;0;0;0;0;-2;2;54;0;99;0;0.002;23763998;0;0;0;0;0.913;579.056;0;0;0;-0.013;0.013;1;23763950;0;0;0;0;0;0;0;0;0;23763045;54.69462844;25.25039384;125.52180128;0.00000000;0.00000000;12.00000000;18.36003304;
23764242;57.2;19.5;0;0;0;16.6;0;0;0;0;0;0;0;0;0;0;-2;2;54;0;99;-0.001;0.001;23764148;0;0;0;0;0.913;579.018;0;0;0;-0.013;0.013;1;23764095;0;0;0;0;0;0;0;0;0;23763045;54.69462844;25.25039384;125.52180128;0.00000000;0.00000000;12.00000000;18.36003304;
23764389;57.2;19.5;0;0;0;16.7;0;0;0;0;0;0;0;0;0;0;-2;2;54;0;99;0;0.001;23764336;0;0;0;0;0.913;578.959;0;0;0;-0.013;0.013;1;23764243;0;0;0;0;0;0;0;0;0;23764045;54.69464041;25.25036521;128.21079798;0.00000000;0.00000000;12.00000000;16.18772888;
23764534;57.2;19.6;0;0;0;16.5;0;0;0;0;0;0;0;0;0;0;-2;2;54;0;99;0;0.001;23764434;0;0;0;0;0.913;578.916;0;0;0;-0.013;0.013;1;23764390;0;0;0;0;0;0;0;0;0;23764045;54.69464041;25.25036521;128.21079798;0.00000000;0.00000000;12.00000000;16.18772888;
23764630;57.3;19.5;0;0;0;16.6;0;0;0;0;0;0;0;0;0;0;-2;2;54;0;99;0;0.001;23764536;0;0;0;0;0.913;578.883;0;0;0;-0.013;0.013;1;23764536;0;0;0;0;0;0;0;0;0;23764045;54.69464041;25.25036521;128.21079798;0.00000000;0.00000000;12.00000000;16.18772888;
23764727;57.3;19.5;0;0;0;16.7;0;0;0;0;0;0;0;0;0;0;-2;2;54;0;99;0;0.001;23764633;0;0;0;0;0.913;578.907;0;0;0;-0.013;0.013;1;23764633;0;0;0;0;0;0;0;0;0;23764045;54.69464041;25.25036521;128.21079798;0.00000000;0.00000000;12.00000000;16.18772888;
23764873;57.2;19.5;0;0;0;16.8;0;0;0;0;0;0;0;0;0;0;-2;2;54;0;99;-0.001;0.001;23764732;0;0;0;0;0.913;578.909;0;0;0;-0.013;0.013;1;23764733;0;0;0;0;0;0;0;0;0;23764045;54.69464041;25.25036521;128.21079798;0.00000000;0.00000000;12.00000000;16.18772888;
23764970;57.3;19.5;0;0;0;16.7;0;0;0;0;0;0;0;0;0;0;-2;2;54;0;99;0;0.001;23764877;0;0;0;0;0.913;578.884;0;0;0;-0.013;0.013;1;23764878;0;0;0;0;0;0;0;0;0;23764045;54.69464041;25.25036521;128.21079798;0.00000000;0.00000000;12.00000000;16.18772888;
23765067;57.3;19.5;0;0;0;16.7;0;0;0;0;0;0;0;0;0;0;-2;2;54;0;99;-0.001;0.001;23764976;0;0;0;0;0.912;578.849;0;0;0;-0.013;0.013;1;23764976;0;0;0;0;0;0;0;0;0;23764045;54.69464041;25.25036521;128.21079798;0.00000000;0.00000000;12.00000000;16.18772888;
23765165;57.2;19.5;0;0;0;16.7;0;0;0;0;0;0;0;0;0;0;-2;2;54;0;99;0;0;23765072;0;0;0;0;0.913;578.889;0;0;0;-0.013;0.013;1;23765073;0;0;0;0;0;0;0;0;0;23764045;54.69464041;25.25036521;128.21079798;0.00000000;0.00000000;12.00000000;16.18772888;
23765263;57.3;19.5;0;0;0;16.7;0;0;0;0;0;0;0;0;0;0;-2;2;54;0;99;0;0;23765169;0;0;0;0;0.913;578.889;0;0;0;-0.013;0.013;1;23765169;0;0;0;0;0;0;0;0;0;23764045;54.69464041;25.25036521;128.21079798;0.00000000;0.00000000;12.00000000;16.18772888;
23765409;57.3;19.5;0;0;0;16.6;0;0;0;0;0;0;0;0;0;0;-2;2;54;0;99;0;0;23765267;0;0;0;0;0.913;578.939;0;0;0;-0.013;0.013;1;23765267;0;0;0;0;0;0;0;0;0;23765000;54.69464797;25.25035795;130.57062688;0.00000000;0.00000000;12.00000000;14.72469711;
23765606;57.3;19.5;0;0;0;16.7;0;0;0;0;0;0;0;0;0;0;-2;2;54;0;99;0;0;23765529;0;0;0;0;0.913;578.947;0;0;0;-0.013;0.013;1;23765529;0;0;0;0;0;0;0;0;0;23765000;54.69464797;25.25035795;130.57062688;0.00000000;0.00000000;12.00000000;14.72469711;
23765704;57.3;19.5;0;0;0;16.8;0;0;0;0;0;0;0;0;0;0;-2;2;54;0;99;0;0.001;23765606;0;0;0;0;0.913;578.944;0;0;0;-0.013;0.013;1;23765654;0;0;0;0;0;0;0;0;0;23765000;54.69464797;25.25035795;130.57062688;0.00000000;0.00000000;12.00000000;14.72469711;
23765801;57.3;19.5;0;0;0;16.7;0;0;0;0;0;0;0;0;0;0;-2;2;54;0;99;0;0;23765704;0;0;0;0;0.913;578.957;0;0;0;-0.013;0.013;1;23765751;0;0;0;0;0;0;0;0;0;23765000;54.69464797;25.25035795;130.57062688;0.00000000;0.00000000;12.00000000;14.72469711;
23765897;57.3;19.6;0;0;0;16.5;0;0;0;0;0;0;0;0;0;0;-2;2;54;0;99;0;0.001;23765802;0;0;0;0;0.913;579.001;0;0;0;-0.013;0.013;1;23765847;0;0;0;0;0;0;0;0;0;23765000;54.69464797;25.25035795;130.57062688;0.00000000;0.00000000;12.00000000;14.72469711;
23766046;57.3;19.6;0;0;0;16.5;0;0;0;0;0;0;0;0;0;0;-2;2;54;0;99;0;0.001;23765996;0;0;0;0;0.913;579.013;0;0;0;-0.013;0.013;1;23765996;0;0;0;0;0;0;0;0;0;23765000;54.69464797;25.25035795;130.57062688;0.00000000;0.00000000;12.00000000;14.72469711;
23766236;57.3;19.5;0;0;0;16.6;0;0;0;0;0;0;0;0;0;0;-2;2;54;0;99;0;0.001;23766144;0;0;0;0;0.913;579.037;0;0;0;-0.013;0.013;1;23766145;0;0;0;0;0;0;0;0;0;23765000;54.69464797;25.25035795;130.57062688;0.00000000;0.00000000;12.00000000;14.72469711;
23766337;57.3;19.5;0;0;0;16.6;0;0;0;0;0;0;0;0;0;0;-2;2;54;0;99;0;0;23766289;0;0;0;0;0.913;579.041;0;0;0;-0.013;0.013;1;23766289;0;0;0;0;0;0;0;0;0;23766000;54.69465242;25.25036442;131.44777765;0.00000000;0.00000000;12.00000000;13.63434315;
23766434;57.3;19.5;0;0;0;16.6;0;0;0;0;0;0;0;0;0;0;-2;2;54;0;99;0;0;23766289;0;0;0;0;0.913;579.041;0;0;0;-0.013;0.013;1;23766289;0;0;0;0;0;0;0;0;0;23766000;54.69465242;25.25036442;131.44777765;0.00000000;0.00000000;12.00000000;13.63434315;
23766533;57.2;19.5;0;0;0;16.8;0;0;0;0;0;0;0;0;0;0;-2;2;54;0;99;0;0;23766436;0;0;0;0;0.913;579.09;0;0;0;-0.013;0.013;1;23766437;0;0;0;0;0;0;0;0;0;23766000;54.69465242;25.25036442;131.44777765;0.00000000;0.00000000;12.00000000;13.63434315;
23766630;57.2;19.5;0;0;0;16.6;0;0;0;0;0;0;0;0;0;0;-2;2;54;0;99;0;0.001;23766536;0;0;0;0;0.913;579.055;0;0;0;-0.013;0.013;1;23766537;0;0;0;0;0;0;0;0;0;23766000;54.69465242;25.25036442;131.44777765;0.00000000;0.00000000;12.00000000;13.63434315;
23766727;57.3;19.5;0;0;0;16.6;0;0;0;0;0;0;0;0;0;0;-2;2;54;0;99;0;0;23766632;0;0;0;0;0.913;579.052;0;0;0;-0.013;0.013;1;23766633;0;0;0;0;0;0;0;0;0;23766000;54.69465242;25.25036442;131.44777765;0.00000000;0.00000000;12.00000000;13.63434315;
23766825;57.2;19.6;0;0;0;16.5;0;0;0;0;0;0;0;0;0;0;-2;2;54;0;99;0;0.001;23766729;0;0;0;0;0.913;579.071;0;0;0;-0.013;0.013;1;23766730;0;0;0;0;0;0;0;0;0;23766000;54.69465242;25.25036442;131.44777765;0.00000000;0.00000000;12.00000000;13.63434315;
23766971;57.2;19.6;0;0;0;16.4;0;0;0;0;0;0;0;0;0;0;-2;2;54;0;99;0;0.001;23766828;0;0;0;0;0.913;579.078;0;0;0;-0.013;0.013;1;23766829;0;0;0;0;0;0;0;0;0;23766000;54.69465242;25.25036442;131.44777765;0.00000000;0.00000000;12.00000000;13.63434315;
23767164;57.3;19.6;0;0;0;16.3;0;0;0;0;0;0;0;0;0;0;-2;2;54;0;99;0;0.001;23766974;0;0;0;0;0.913;579.113;0;0;0;-0.013;0.013;1;23766974;0;0;0;0;0;0;0;0;0;23766000;54.69465242;25.25036442;131.44777765;0.00000000;0.00000000;12.00000000;13.63434315;
23767263;57.3;19.6;0;0;0;16.4;0;0;0;0;0;0;0;0;0;0;-2;2;54;0;99;0;0.001;23767166;0;0;0;0;0.913;579.127;0;0;0;-0.013;0.013;1;23767167;0;0;0;0;0;0;0;0;0;23766000;54.69465242;25.25036442;131.44777765;0.00000000;0.00000000;12.00000000;13.63434315;
23767360;57.3;19.5;0;0;0;16.5;0;0;0;0;0;0;0;0;0;0;-2;2;54;0;99;0;0.001;23767264;0;0;0;0;0.913;579.16;0;0;0;-0.013;0.013;1;23767310;0;0;0;0;0;0;0;0;0;23767000;54.69465066;25.25037226;131.65254433;0.00000000;0.00000000;12.00000000;12.84982586;
23767458;57.3;19.6;0;0;0;16.5;0;0;0;0;0;0;0;0;0;0;-2;2;54;0;99;0;0;23767361;0;0;0;0;0.913;579.209;0;0;0;-0.013;0.013;1;23767408;0;0;0;0;0;0;0;0;0;23767000;54.69465066;25.25037226;131.65254433;0.00000000;0.00000000;12.00000000;12.84982586;
23767608;57.3;19.5;0;0;0;16.6;0;0;0;0;0;0;0;0;0;0;-2;2;54;0;99;-0.001;0;23767459;0;0;0;0;0.913;579.194;0;0;0;-0.013;0.013;1;23767505;0;0;0;0;0;0;0;0;0;23767000;54.69465066;25.25037226;131.65254433;0.00000000;0.00000000;12.00000000;12.84982586;
23767804;57.3;19.5;0;0;0;16.7;0;0;0;0;0;0;0;0;0;0;-2;2;54;0;99;-0.001;0;23767609;0;0;0;0;0.913;579.224;0;0;0;-0.013;0.013;1;23767611;0;0;0;0;0;0;0;0;0;23767000;54.69465066;25.25037226;131.65254433;0.00000000;0.00000000;12.00000000;12.84982586;
23767998;57.3;19.5;0;0;0;16.7;0;0;0;0;0;0;0;0;0;0;-2;2;54;0;99;0;0;23767806;0;0;0;0;0.913;579.227;0;0;0;-0.013;0.013;1;23767807;0;0;0;0;0;0;0;0;0;23767000;54.69465066;25.25037226;131.65254433;0.00000000;0.00000000;12.00000000;12.84982586;
23768145;57.2;19.5;0;0;0;16.7;0;0;0;0;0;0;0;0;0;0;-2;2;54;0;99;-0.001;0;23768000;0;0;0;0;0.913;579.251;0;0;0;-0.013;0.013;1;23768001;0;0;0;0;0;0;0;0;0;23767000;54.69465066;25.25037226;131.65254433;0.00000000;0.00000000;12.00000000;12.84982586;
23768288;57.3;19.5;0;0;0;16.7;0;0;0;0;0;0;0;0;0;0;-2;2;54;0;99;-0.001;0;23768147;0;0;0;0;0.913;579.269;0;0;0;-0.013;0.013;1;23768147;0;0;0;0;0;0;0;0;0;23767000;54.69465066;25.25037226;131.65254433;0.00000000;0.00000000;12.00000000;12.84982586;
23768388;57.3;19.5;0;0;0;16.8;0;0;0;0;0;0;0;0;0;0;-2;2;54;0;99;0;0;23768294;0;0;0;0;0.913;579.306;0;0;0;-0.013;0.013;1;23768294;0;0;0;0;0;0;0;0;0;23768000;54.69465009;25.25037751;131.81174516;0.00000000;0.00000000;12.00000000;12.03733349;
23768483;57.3;19.5;0;0;0;16.6;0;0;0;0;0;0;0;0;0;0;-2;2;54;0;99;0;0;23768433;0;0;0;0;0.913;579.308;0;0;0;-0.013;0.013;1;23768434;0;0;0;0;0;0;0;0;0;23768000;54.69465009;25.25037751;131.81174516;0.00000000;0.00000000;12.00000000;12.03733349;
23768633;57.2;19.5;0;0;0;16.5;0;0;0;0;0;0;0;0;0;0;-2;2;54;0;99;0;0.001;23768632;0;0;0;0;0.913;579.336;0;0;0;-0.013;0.013;1;23768633;0;0;0;0;0;0;0;0;0;23768000;54.69465009;25.25037751;131.81174516;0.00000000;0.00000000;12.00000000;12.03733349;
23768779;57.2;19.6;0;0;0;16.5;0;0;0;0;0;0;0;0;0;0;-2;2;54;0;99;0;0.001;23768632;0;0;0;0;0.913;579.336;0;0;0;-0.013;0.013;1;23768633;0;0;0;0;0;0;0;0;0;23768000;54.69465009;25.25037751;131.81174516;0.00000000;0.00000000;12.00000000;12.03733349;
23768876;57.3;19.5;0;0;0;16.4;0;0;0;0;0;0;0;0;0;0;-2;2;54;0;99;0;0.001;23768783;0;0;0;0;0.913;579.341;0;0;0;-0.013;0.013;1;23768784;0;0;0;0;0;0;0;0;0;23768000;54.69465009;25.25037751;131.81174516;0.00000000;0.00000000;12.00000000;12.03733349;
23769024;57.3;19.5;0;0;0;16.6;0;0;0;0;0;0;0;0;0;0;-2;2;54;0;99;0;0.001;23768878;0;0;0;0;0.913;579.328;0;0;0;-0.013;0.013;1;23768878;0;0;0;0;0;0;0;0;0;23768000;54.69465009;25.25037751;131.81174516;0.00000000;0.00000000;12.00000000;12.03733349;
23769119;57.3;19.5;0;0;0;16.5;0;0;0;0;0;0;0;0;0;0;-2;2;54;0;99;0;0.001;23769025;0;0;0;0;0.913;579.314;0;0;0;-0.013;0.013;1;23769026;0;0;0;0;0;0;0;0;0;23768000;54.69465009;25.25037751;131.81174516;0.00000000;0.00000000;12.00000000;12.03733349;
23769220;57.2;19.5;0;0;0;16.5;0;0;0;0;0;0;0;0;0;0;-2;2;54;0;99;0;0.001;23769121;0;0;0;0;0.913;579.32;0;0;0;-0.013;0.013;1;23769166;0;0;0;0;0;0;0;0;0;23768000;54.69465009;25.25037751;131.81174516;0.00000000;0.00000000;12.00000000;12.03733349;
23769415;57.2;19.6;0;0;0;16.6;0;0;0;0;0;0;0;0;0;0;-2;2;54;0;99;0;0.002;23769221;0;0;0;0;0.913;579.289;0;0;0;-0.013;0.013;1;23769263;0;0;0;0;0;0;0;0;0;23769000;54.69465032;25.25037624;131.94421087;0.00000000;0.00000000;8.00000000;11.31064415;
23769557;57.2;19.6;0;0;0;16.4;0;0;0;0;0;0;0;0;0;0;-2;2;54;0;99;0;0.001;23769416;0;0;0;0;0.913;579.239;0;0;0;-0.013;0.013;1;23769417;0;0;0;0;0;0;0;0;0;23769000;54.69465032;25.25037624;131.94421087;0.00000000;0.00000000;8.00000000;11.31064415;
23769754;57.2;19.6;0;0;0;16.4;0;0;0;0;0;0;0;0;0;0;-2;2;54;0;99;0;0.001;23769558;0;0;0;0;0.913;579.247;0;0;0;-0.013;0.013;1;23769558;0;0;0;0;0;0;0;0;0;23769000;54.69465032;25.25037624;131.94421087;0.00000000;0.00000000;8.00000000;11.31064415;
23769904;57.2;19.5;0;0;0;16.5;0;0;0;0;0;0;0;0;0;0;-2;2;54;0;99;0;0.002;23769755;0;0;0;0;0.913;579.188;0;0;0;-0.013;0.013;1;23769756;0;0;0;0;0;0;0;0;0;23769000;54.69465032;25.25037624;131.94421087;0.00000000;0.00000000;8.00000000;11.31064415;
23770098;57.3;19.5;0;0;0;16.7;0;0;0;0;0;0;0;0;0;0;-2;2;54;0;99;0;0;23769905;0;0;0;0;0.913;579.153;0;0;0;-0.013;0.013;1;23769905;0;0;0;0;0;0;0;0;0;23769000;54.69465032;25.25037624;131.94421087;0.00000000;0.00000000;8.00000000;11.31064415;
23770199;57.3;19.5;0;0;0;16.6;0;0;0;0;0;0;0;0;0;0;-2;2;54;0;99;0;0.001;23770098;0;0;0;0;0.913;579.072;0;0;0;-0.013;0.013;1;23770099;0;0;0;0;0;0;0;0;0;23769000;54.69465032;25.25037624;131.94421087;0.00000000;0.00000000;8.00000000;11.31064415;
23770333;57.2;19.6;0;0;0;16.6;0;0;0;0;0;0;0;0;0;0;-2;2;54;0;99;0;0.002;23770199;0;0;0;0;0.913;579.022;0;0;0;-0.013;0.013;1;23770199;0;0;0;0;0;0;0;0;0;23770000;54.69464432;25.25037981;131.72816027;0.00000000;0.00000000;8.00000000;10.85818672;
23770480;57.3;19.5;0;0;0;16.5;0;0;0;0;0;0;0;0;0;0;-2;2;54;0;99;0;0.001;23770348;0;0;0;0;0.913;579.017;0;0;0;-0.013;0.013;1;23770348;0;0;0;0;0;0;0;0;0;23770000;54.69464432;25.25037981;131.72816027;0.00000000;0.00000000;8.00000000;10.85818672;
23770581;57.3;19.5;0;0;0;16.5;0;0;0;0;0;0;0;0;0;0;-2;2;54;0;99;0;0.001;23770530;0;0;0;0;0.913;578.949;0;0;0;-0.013;0.013;1;23770531;0;0;0;0;0;0;0;0;0;23770000;54.69464432;25.25037981;131.72816027;0.00000000;0.00000000;8.00000000;10.85818672;
23770681;57.3;19.5;0;0;0;16.4;0;0;0;0;0;0;0;0;0;0;-2;2;54;0;99;0;0.001;23770630;0;0;0;0;0.913;578.956;0;0;0;-0.013;0.013;1;23770631;0;0;0;0;0;0;0;0;0;23770000;54.69464432;25.25037981;131.72816027;0.00000000;0.00000000;8.00000000;10.85818672;
23770782;57.3;19.5;0;0;0;16.3;0;0;0;0;0;0;0;0;0;0;-2;2;54;0;99;0;0.001;23770732;0;0;0;0;0.913;578.93;0;0;0;-0.013;0.013;1;23770782;0;0;0;0;0;0;0;0;0;23770000;54.69464432;25.25037981;131.72816027;0.00000000;0.00000000;8.00000000;10.85818672;
23770920;57.3;19.5;0;0;0;16.6;0;0;0;0;0;0;0;0;0;0;-2;2;54;0;99;-0.001;0;23770834;0;0;0;0;0.913;578.9;0;0;0;-0.013;0.013;1;23770782;0;0;0;0;0;0;0;0;0;23770000;54.69464432;25.25037981;131.72816027;0.00000000;0.00000000;8.00000000;10.85818672;
23771067;57.2;19.5;0;0;0;16.7;0;0;0;0;0;0;0;0;0;0;-2;2;54;0;99;0;0;23771017;0;0;0;0;0.913;578.94;0;0;0;-0.013;0.013;1;23770921;0;0;0;0;0;0;0;0;0;23770000;54.69464432;25.25037981;131.72816027;0.00000000;0.00000000;8.00000000;10.85818672;
23771218;57.3;19.5;0;0;0;16.7;0;0;0;0;0;0;0;0;0;0;-2;2;54;0;99;0;0;23771118;0;0;0;0;0.913;578.908;0;0;0;-0.013;0.013;1;23771068;0;0;0;0;0;0;0;0;0;23770000;54.69464432;25.25037981;131.72816027;0.00000000;0.00000000;8.00000000;10.85818672;
23771311;57.4;19.5;0;0;0;16.7;0;0;0;0;0;0;0;0;0;0;-2;2;54;0;99;0;0;23771259;0;0;0;0;0.913;578.885;0;0;0;-0.013;0.013;1;23771219;0;0;0;0;0;0;0;0;0;23771000;54.69464187;25.25037564;131.16019732;0.00000000;0.00000000;8.00000000;10.45339394;
23771461;57.3;19.5;0;0;0;16.6;0;0;0;0;0;0;0;0;0;0;-2;2;54;0;99;0;0;23771358;0;0;0;0;0.913;578.919;0;0;0;-0.013;0.013;1;23771312;0;0;0;0;0;0;0;0;0;23771000;54.69464187;25.25037564;131.16019732;0.00000000;0.00000000;8.00000000;10.45339394;
23771559;57.2;19.5;0;0;0;16.7;0;0;0;0;0;0;0;0;0;0;-2;2;54;0;99;-0.001;0;23771503;0;0;0;0;0.913;578.939;0;0;0;-0.013;0.013;1;23771462;0;0;0;0;0;0;0;0;0;23771000;54.69464187;25.25037564;131.16019732;0.00000000;0.00000000;8.00000000;10.45339394;
23771705;57.4;19.5;0;0;0;16.7;0;0;0;0;0;0;0;0;0;0;-2;2;54;0;99;0;0;23771656;0;0;0;0;0.913;578.921;0;0;0;-0.013;0.013;1;23771560;0;0;0;0;0;0;0;0;0;23771000;54.69464187;25.25037564;131.16019732;0.00000000;0.00000000;8.00000000;10.45339394;
23771802;57.3;19.6;0;0;0;16.7;0;0;0;0;0;0;0;0;0;0;-2;2;54;0;99;0;0;23771751;0;0;0;0;0.913;578.931;0;0;0;-0.013;0.013;1;23771705;0;0;0;0;0;0;0;0;0;23771000;54.69464187;25.25037564;131.16019732;0.00000000;0.00000000;8.00000000;10.45339394;
23771903;57.2;19.6;0;0;0;16.7;0;0;0;0;0;0;0;0;0;0;-2;2;54;0;99;0;0;23771847;0;0;0;0;0.913;578.895;0;0;0;-0.013;0.013;1;23771803;0;0;0;0;0;0;0;0;0;23771000;54.69464187;25.25037564;131.16019732;0.00000000;0.00000000;8.00000000;10.45339394;
23772044;57.3;19.5;0;0;0;16.7;0;0;0;0;0;0;0;0;0;0;-2;2;54;0;99;0;0;23771949;0;0;0;0;0.913;578.885;0;0;0;-0.013;0.013;1;23771903;0;0;0;0;0;0;0;0;0;23771000;54.69464187;25.25037564;131.16019732;0.00000000;0.00000000;8.00000000;10.45339394;
23772142;57.3;19.5;0;0;0;16.6;0;0;0;0;0;0;0;0;0;0;-2;2;54;0;99;-0.001;0;23772093;0;0;0;0;0.912;578.855;0;0;0;-0.013;0.013;1;23772044;0;0;0;0;0;0;0;0;0;23771000;54.69464187;25.25037564;131.16019732;0.00000000;0.00000000;8.00000000;10.45339394;
23772284;57.2;19.5;0;0;0;16.6;0;0;0;0;0;0;0;0;0;0;-2;2;54;0;99;0;0;23772193;0;0;0;0;0.913;578.898;0;0;0;-0.013;0.013;1;23772143;0;0;0;0;0;0;0;0;0;23771000;54.69464187;25.25037564;131.16019732;0.00000000;0.00000000;8.00000000;10.45339394;
23772392;57.3;19.5;0;0;0;16.8;0;0;0;0;0;0;0;0;0;0;-2;2;54;0;99;0;0;23772293;0;0;0;0;0.912;578.859;0;0;0;-0.013;0.013;1;23772285;0;0;0;0;0;0;0;0;0;23772000;54.69463842;25.25037146;130.69303936;0.00000000;0.00000000;8.00000000;10.11881733;
23772478;57.3;19.5;0;0;0;16.8;0;0;0;0;0;0;0;0;0;0;-2;2;54;0;99;0;0;23772443;0;0;0;0;0.912;578.853;0;0;0;-0.013;0.013;1;23772443;0;0;0;0;0;0;0;0;0;23772000;54.69463842;25.25037146;130.69303936;0.00000000;0.00000000;8.00000000;10.11881733;
23772579;57.3;19.5;0;0;0;16.6;0;0;0;0;0;0;0;0;0;0;-2;2;54;0;99;0;0;23772530;0;0;0;0;0.912;578.813;0;0;0;-0.013;0.013;1;23772531;0;0;0;0;0;0;0;0;0;23772000;54.69463842;25.25037146;130.69303936;0.00000000;0.00000000;8.00000000;10.11881733;
23772677;57.2;19.5;0;0;0;16.7;0;0;0;0;0;0;0;0;0;0;-2;2;54;0;99;-0.001;0;23772624;0;0;0;0;0.912;578.787;0;0;0;-0.013;0.013;1;23772676;0;0;0;0;0;0;0;0;0;23772000;54.69463842;25.25037146;130.69303936;0.00000000;0.00000000;8.00000000;10.11881733;
23772870;57.2;19.5;0;0;0;16.7;0;0;0;0;0;0;0;0;0;0;-2;2;54;0;99;0;0;23772773;0;0;0;0;0.912;578.693;0;0;0;-0.013;0.013;1;23772676;0;0;0;0;0;0;0;0;0;23772000;54.69463842;25.25037146;130.69303936;0.00000000;0.00000000;8.00000000;10.11881733;
23773016;57.2;19.5;0;0;0;16.8;0;0;0;0;0;0;0;0;0;0;-2;2;54;0;99;-0.001;0;23772922;0;0;0;0;0.912;578.626;0;0;0;-0.013;0.013;1;23772871;0;0;0;0;0;0;0;0;0;23772000;54.69463842;25.25037146;130.69303936;0.00000000;0.00000000;8.00000000;10.11881733;
23773161;57.2;19.5;0;0;0;16.7;0;0;0;0;0;0;0;0;0;0;-2;2;54;0;99;0;0;23773063;0;0;0;0;0.912;578.563;0;0;0;-0.013;0.013;1;23773017;0;0;0;0;0;0;0;0;0;23772000;54.69463842;25.25037146;130.69303936;0.00000000;0.00000000;8.00000000;10.11881733;
23773309;57.2;19.5;0;0;0;16.7;0;0;0;0;0;0;0;0;0;0;-2;2;54;0;99;-0.001;0;23773165;0;0;0;0;0.912;578.52;0;0;0;-0.013;0.013;1;23773165;0;0;0;0;0;0;0;0;0;23772000;54.69463842;25.25037146;130.69303936;0.00000000;0.00000000;8.00000000;10.11881733;
23773407;57.2;19.5;0;0;0;16.7;0;0;0;0;0;0;0;0;0;0;-2;2;54;0;99;0;0.001;23773313;0;0;0;0;0.912;578.542;0;0;0;-0.013;0.013;1;23773313;0;0;0;0;0;0;0;0;0;23773000;54.69463780;25.25036664;130.36659298;0.00000000;0.00000000;8.00000000;9.81791592;
23773505;57.2;19.5;0;0;0;16.6;0;0;0;0;0;0;0;0;0;0;-2;2;54;0;99;0;0.001;23773456;0;0;0;0;0.912;578.536;0;0;0;-0.013;0.013;1;23773457;0;0;0;0;0;0;0;0;0;23773000;54.69463780;25.25036664;130.36659298;0.00000000;0.00000000;8.00000000;9.81791592;
23773653;57.3;19.5;0;0;0;16.6;0;0;0;0;0;0;0;0;0;0;-2;2;54;0;99;0;0;23773556;0;0;0;0;0.912;578.524;0;0;0;-0.013;0.013;1;23773556;0;0;0;0;0;0;0;0;0;23773000;54.69463780;25.25036664;130.36659298;0.00000000;0.00000000;8.00000000;9.81791592;
23773750;57.3;19.5;0;0;0;16.7;0;0;0;0;0;0;0;0;0;0;-2;2;54;0;99;0;0;23773700;0;0;0;0;0.912;578.507;0;0;0;-0.013;0.013;1;23773701;0;0;0;0;0;0;0;0;0;23773000;54.69463780;25.25036664;130.36659298;0.00000000;0.00000000;8.00000000;9.81791592;
23773898;57.3;19.5;0;0;0;16.6;0;0;0;0;0;0;0;0;0;0;-2;2;54;0;99;-0.001;0;23773848;0;0;0;0;0.912;578.49;0;0;0;-0.013;0.013;1;23773850;0;0;0;0;0;0;0;0;0;23773000;54.69463780;25.25036664;130.36659298;0.00000000;0.00000000;8.00000000;9.81791592;
23774041;57.3;19.5;0;0;0;16.7;0;0;0;0;0;0;0;0;0;0;-2;2;54;0;99;0;0;23773945;0;0;0;0;0.912;578.515;0;0;0;-0.013;0.013;1;23773946;0;0;0;0;0;0;0;0;0;23773000;54.69463780;25.25036664;130.36659298;0.00000000;0.00000000;8.00000000;9.81791592;
23774137;57.3;19.6;0;0;0;16.6;0;0;0;0;0;0;0;0;0;0;-2;2;54;0;99;0;0;23774091;0;0;0;0;0.912;578.511;0;0;0;-0.013;0.013;1;23774091;0;0;0;0;0;0;0;0;0;23773000;54.69463780;25.25036664;130.36659298;0.00000000;0.00000000;8.00000000;9.81791592;
23774235;57.3;19.5;0;0;0;16.6;0;0;0;0;0;0;0;0;0;0;-2;2;54;0;99;0;0;23774190;0;0;0;0;0.912;578.507;0;0;0;-0.013;0.013;1;23774191;0;0;0;0;0;0;0;0;0;23773000;54.69463780;25.25036664;130.36659298;0.00000000;0.00000000;8.00000000;9.81791592;
23774344;57.3;19.5;0;0;0;16.6;0;0;0;0;0;0;0;0;0;0;-2;2;54;0;99;0;0.001;23774282;0;0;0;0;0.912;578.486;0;0;0;-0.013;0.013;1;23774344;0;0;0;0;0;0;0;0;0;23774000;54.69463708;25.25036234;130.55918442;0.00000000;0.00000000;8.00000000;9.53088665;
23774485;57.3;19.5;0;0;0;16.7;0;0;0;0;0;0;0;0;0;0;-2;2;54;0;99;0;0.001;23774481;0;0;0;0;0.912;578.515;0;0;0;-0.013;0.013;1;23774344;0;0;0;0;0;0;0;0;0;23774000;54.69463708;25.25036234;130.55918442;0.00000000;0.00000000;8.00000000;9.53088665;
23774677;57.2;19.5;0;0;0;16.7;0;0;0;0;0;0;0;0;0;0;-2;2;54;0;99;0;0;23774481;0;0;0;0;0.912;578.515;0;0;0;-0.013;0.013;1;23774486;0;0;0;0;0;0;0;0;0;23774000;54.69463708;25.25036234;130.55918442;0.00000000;0.00000000;8.00000000;9.53088665;
23774874;57.2;19.5;0;0;0;16.8;0;0;0;0;0;0;0;0;0;0;-2;2;54;0;99;0;0.001;23774726;0;0;0;0;0.912;578.492;0;0;0;-0.013;0.013;1;23774727;0;0;0;0;0;0;0;0;0;23774000;54.69463708;25.25036234;130.55918442;0.00000000;0.00000000;8.00000000;9.53088665;
23775025;57.2;19.6;0;0;0;16.6;0;0;0;0;0;0;0;0;0;0;-2;2;54;0;99;0;0.001;23774925;0;0;0;0;0.912;578.49;0;0;0;-0.013;0.013;1;23774928;0;0;0;0;0;0;0;0;0;23774000;54.69463708;25.25036234;130.55918442;0.00000000;0.00000000;8.00000000;9.53088665;
23775164;57.2;19.5;0;0;0;16.6;0;0;0;0;0;0;0;0;0;0;-2;2;54;0;99;0;0;23775114;0;0;0;0;0.912;578.516;0;0;0;-0.013;0.013;1;23775115;0;0;0;0;0;0;0;0;0;23774000;54.69463708;25.25036234;130.55918442;0.00000000;0.00000000;8.00000000;9.53088665;
23775352;57.3;19.6;0;0;0;16.7;0;0;0;0;0;0;0;0;0;0;-2;2;54;0;99;0;0;23775256;0;0;0;0;0.912;578.578;0;0;0;-0.013;0.013;1;23775256;0;0;0;0;0;0;0;0;0;23775000;54.69463723;25.25036056;130.98194750;0.00000000;0.00000000;8.00000000;9.22172356;
23775512;57.3;19.4;0;0;0;16.8;0;0;0;0;0;0;0;0;0;0;-2;2;54;0;99;-0.001;0.001;23775456;0;0;0;0;0.912;578.658;0;0;0;-0.013;0.013;1;23775456;0;0;0;0;0;0;0;0;0;23775000;54.69463723;25.25036056;130.98194750;0.00000000;0.00000000;8.00000000;9.22172356;
23775697;57.3;19.5;0;0;0;16.7;0;0;0;0;0;0;0;0;0;0;-2;2;54;0;99;0;0;23775650;0;0;0;0;0.912;578.735;0;0;0;-0.013;0.013;1;23775652;0;0;0;0;0;0;0;0;0;23775000;54.69463723;25.25036056;130.98194750;0.00000000;0.00000000;8.00000000;9.22172356;
23775843;57.3;19.5;0;0;0;16.6;0;0;0;0;0;0;0;0;0;0;-2;2;54;0;99;0;0;23775794;0;0;0;0;0.912;578.734;0;0;0;-0.013;0.013;1;23775795;0;0;0;0;0;0;0;0;0;23775000;54.69463723;25.25036056;130.98194750;0.00000000;0.00000000;8.00000000;9.22172356;
23775993;57.2;19.5;0;0;0;16.7;0;0;0;0;0;0;0;0;0;0;-2;2;54;0;99;-0.001;0;23775991;0;0;0;0;0.912;578.73;0;0;0;-0.013;0.013;1;23775992;0;0;0;0;0;0;0;0;0;23775994;54.69462740;25.25052900;131.70001221;0.00000000;0.00000000;20.00000000;1.66920030;
23776091;57.2;19.5;0;0;0;16.6;0;0;0;0;0;0;0;0;0;0;-2;2;54;0;99;-0.001;0;23775991;0;0;0;0;0.912;578.73;0;0;0;-0.013;0.013;1;23775992;0;0;0;0;0;0;0;0;0;23775994;54.69462740;25.25052900;131.70001221;0.00000000;0.00000000;20.00000000;1.66920030;
23776187;57.2;19.5;0;0;0;16.7;0;0;0;0;0;0;0;0;0;0;-2;2;54;0;99;0;0;23776092;0;0;0;0;0.912;578.722;0;0;0;-0.013;0.013;1;23776093;0;0;0;0;0;0;0;0;0;23775994;54.69462740;25.25052900;131.70001221;0.00000000;0.00000000;20.00000000;1.66920030;
23776283;57.3;19.6;0;0;0;16.6;0;0;0;0;0;0;0;0;0;0;-2;2;54;0;99;0;0;23776189;0;0;0;0;0.912;578.749;0;0;0;-0.013;0.013;1;23776190;0;0;0;0;0;0;0;0;0;23775994;54.69462740;25.25052900;131.70001221;0.00000000;0.00000000;20.00000000;1.66920030;
23776429;57.2;19.6;0;0;0;16.5;0;0;0;0;0;0;0;0;0;0;-2;2;54;0;99;0;0;23776285;0;0;0;0;0.912;578.82;0;0;0;-0.013;0.013;1;23776286;0;0;0;0;0;0;0;0;0;23776000;54.69464016;25.25035904;131.54554180;0.00000000;0.00000000;8.00000000;8.97579956;
23776528;57.3;19.6;0;0;0;16.5;0;0;0;0;0;0;0;0;0;0;-2;2;54;0;99;0;0;23776431;0;0;0;0;0.912;578.844;0;0;0;-0.013;0.013;1;23776432;0;0;0;0;0;0;0;0;0;23776000;54.69464016;25.25035904;131.54554180;0.00000000;0.00000000;8.00000000;8.97579956;
23776624;57.3;19.5;0;0;0;16.6;0;0;0;0;0;0;0;0;0;0;-2;2;54;0;99;0;0;23776529;0;0;0;0;0.912;578.852;0;0;0;-0.013;0.013;1;23776577;0;0;0;0;0;0;0;0;0;23776000;54.69464016;25.25035904;131.54554180;0.00000000;0.00000000;8.00000000;8.97579956;
23776722;57.3;19.5;0;0;0;16.6;0;0;0;0;0;0;0;0;0;0;-2;2;54;0;99;0;0;23776625;0;0;0;0;0.912;578.814;0;0;0;-0.013;0.013;1;23776673;0;0;0;0;0;0;0;0;0;23776000;54.69464016;25.25035904;131.54554180;0.00000000;0.00000000;8.00000000;8.97579956;
23776864;57.2;19.6;0;0;0;16.6;0;0;0;0;0;0;0;0;0;0;-2;2;54;0;99;0;0;23776723;0;0;0;0;0.912;578.796;0;0;0;-0.013;0.013;1;23776768;0;0;0;0;0;0;0;0;0;23776000;54.69464016;25.25035904;131.54554180;0.00000000;0.00000000;8.00000000;8.97579956;
23776964;57.2;19.5;0;0;0;16.6;0;0;0;0;0;0;0;0;0;0;-2;2;54;0;99;0;0;23776866;0;0;0;0;0.912;578.771;0;0;0;-0.013;0.013;1;23776869;0;0;0;0;0;0;0;0;0;23776000;54.69464016;25.25035904;131.54554180;0.00000000;0.00000000;8.00000000;8.97579956;
23777074;57.3;19.6;0;0;0;16.6;0;0;0;0;0;0;0;0;0;0;-2;2;54;0;99;0;0;23777064;0;0;0;0;0.912;578.715;0;0;0;-0.013;0.013;1;23777064;0;0;0;0;0;0;0;0;0;23776000;54.69464016;25.25035904;131.54554180;0.00000000;0.00000000;8.00000000;8.97579956;
23777208;57.2;19.6;0;0;0;16.6;0;0;0;0;0;0;0;0;0;0;-2;2;54;0;99;-0.001;0;23777064;0;0;0;0;0.912;578.715;0;0;0;-0.013;0.013;1;23777064;0;0;0;0;0;0;0;0;0;23776000;54.69464016;25.25035904;131.54554180;0.00000000;0.00000000;8.00000000;8.97579956;
23777422;57.3;19.6;0;0;0;16.6;0;0;0;0;0;0;0;0;0;0;-2;2;54;0;99;0;0;23777212;0;0;0;0;0.912;578.643;0;0;0;-0.013;0.013;1;23777212;0;0;0;0;0;0;0;0;0;23777000;54.69464563;25.25035632;132.30764230;0.00000000;0.00000000;8.00000000;8.74348259;
23777548;57.2;19.6;0;0;0;16.6;0;0;0;0;0;0;0;0;0;0;-2;2;54;0;99;0;0;23777424;0;0;0;0;0.912;578.631;0;0;0;-0.013;0.013;1;23777424;0;0;0;0;0;0;0;0;0;23777000;54.69464563;25.25035632;132.30764230;0.00000000;0.00000000;8.00000000;8.74348259;
23777644;57.2;19.5;0;0;0;16.7;0;0;0;0;0;0;0;0;0;0;-2;2;54;0;99;0;0;23777556;0;0;0;0;0.912;578.57;0;0;0;-0.013;0.013;1;23777556;0;0;0;0;0;0;0;0;0;23777000;54.69464563;25.25035632;132.30764230;0.00000000;0.00000000;8.00000000;8.74348259;
23777757;57.3;19.5;0;0;0;16.7;0;0;0;0;0;0;0;0;0;0;-2;2;54;0;99;0;0;23777699;0;0;0;0;0.912;578.541;0;0;0;-0.013;0.013;1;23777699;0;0;0;0;0;0;0;0;0;23777000;54.69464563;25.25035632;132.30764230;0.00000000;0.00000000;8.00000000;8.74348259;
23777840;57.2;19.6;0;0;0;16.8;0;0;0;0;0;0;0;0;0;0;-2;2;54;0;99;-0.001;0;23777793;0;0;0;0;0.912;578.528;0;0;0;-0.013;0.013;1;23777799;0;0;0;0;0;0;0;0;0;23777000;54.69464563;25.25035632;132.30764230;0.00000000;0.00000000;8.00000000;8.74348259;
23777984;57.2;19.5;0;0;0;16.8;0;0;0;0;0;0;0;0;0;0;-2;2;54;0;99;0;0;23777937;0;0;0;0;0.912;578.468;0;0;0;-0.013;0.013;1;23777937;0;0;0;0;0;0;0;0;0;23777000;54.69464563;25.25035632;132.30764230;0.00000000;0.00000000;8.00000000;8.74348259;
23778134;57.3;19.6;0;0;0;16.7;0;0;0;0;0;0;0;0;0;0;-2;2;54;0;99;0;0;23778040;0;0;0;0;0.912;578.493;0;0;0;-0.013;0.013;1;23778040;0;0;0;0;0;0;0;0;0;23777000;54.69464563;25.25035632;132.30764230;0.00000000;0.00000000;8.00000000;8.74348259;
23778229;57.2;19.6;0;0;0;16.7;0;0;0;0;0;0;0;0;0;0;-2;2;54;0;99;-0.001;0;23778183;0;0;0;0;0.912;578.494;0;0;0;-0.013;0.013;1;23778184;0;0;0;0;0;0;0;0;0;23777000;54.69464563;25.25035632;132.30764230;0.00000000;0.00000000;8.00000000;8.74348259;
23778376;57.4;19.5;0;0;0;16.6;0;0;0;0;0;0;0;0;0;0;-2;2;54;0;99;-0.001;0.001;23778329;0;0;0;0;0.912;578.454;0;0;0;-0.013;0.013;1;23778329;0;0;0;0;0;0;0;0;0;23777000;54.69464563;25.25035632;132.30764230;0.00000000;0.00000000;8.00000000;8.74348259;
23778527;57.2;19.6;0;0;0;16.7;0;0;0;0;0;0;0;0;0;0;-2;2;54;0;99;0;0.001;23778430;0;0;0;0;0.912;578.498;0;0;0;-0.013;0.013;1;23778430;0;0;0;0;0;0;0;0;0;23777000;54.69464563;25.25035632;132.30764230;0.00000000;0.00000000;8.00000000;8.74348259;
23778620;57.4;19.5;0;0;0;16.8;0;0;0;0;0;0;0;0;0;0;-2;2;54;0;99;0;0.001;23778573;0;0;0;0;0.912;578.51;0;0;0;-0.013;0.013;1;23778574;0;0;0;0;0;0;0;0;0;23777000;54.69464563;25.25035632;132.30764230;0.00000000;0.00000000;8.00000000;8.74348259;
23778726;57.3;19.7;0;0;0;16.7;0;0;0;0;0;0;0;0;0;0;-2;2;54;0;99;0;0.001;23778724;0;0;0;0;0.912;578.54;0;0;0;-0.013;0.013;1;23778725;0;0;0;0;0;0;0;0;0;23777000;54.69464563;25.25035632;132.30764230;0.00000000;0.00000000;8.00000000;8.74348259;
23778917;57.2;19.6;0;0;0;16.7;0;0;0;0;0;0;0;0;0;0;-2;2;54;0;99;0;0.001;23778724;0;0;0;0;0.912;578.54;0;0;0;-0.013;0.013;1;23778725;0;0;0;0;0;0;0;0;0;23777000;54.69464563;25.25035632;132.30764230;0.00000000;0.00000000;8.00000000;8.74348259;
23779084;57.2;19.6;0;0;0;16.6;0;0;0;0;0;0;0;0;0;0;-2;2;54;0;99;0;0.001;23778918;0;0;0;0;0.912;578.52;0;0;0;-0.013;0.013;1;23778919;0;0;0;0;0;0;0;0;0;23777000;54.69464563;25.25035632;132.30764230;0.00000000;0.00000000;8.00000000;8.74348259;
23779208;57.2;19.6;0;0;0;16.8;0;0;0;0;0;0;0;0;0;0;-2;2;54;0;99;-0.001;0;23779110;0;0;0;0;0.912;578.524;0;0;0;-0.013;0.013;1;23779111;0;0;0;0;0;0;0;0;0;23777000;54.69464563;25.25035632;132.30764230;0.00000000;0.00000000;8.00000000;8.74348259;
23779398;57.3;19.5;0;0;0;16.7;0;0;0;0;0;0;0;0;0;0;-2;2;54;0;99;0;0.001;23779306;0;0;0;0;0.912;578.51;0;0;0;-0.013;0.013;1;23779306;0;0;0;0;0;0;0;0;0;23777000;54.69464563;25.25035632;132.30764230;0.00000000;0.00000000;8.00000000;8.74348259;
23779551;57.3;19.6;0;0;0;16.7;0;0;0;0;0;0;0;0;0;0;-2;2;54;0;99;-0.001;0.001;23779507;0;0;0;0;0.912;578.549;0;0;0;-0.013;0.013;1;23779508;0;0;0;0;0;0;0;0;0;23777000;54.69464563;25.25035632;132.30764230;0.00000000;0.00000000;8.00000000;8.74348259;
23779740;57.2;19.6;0;0;0;16.7;0;0;0;0;0;0;0;0;0;0;-2;2;54;0;99;0;0;23779645;0;0;0;0;0.912;578.56;0;0;0;-0.013;0.013;1;23779645;0;0;0;0;0;0;0;0;0;23777000;54.69464563;25.25035632;132.30764230;0.00000000;0.00000000;8.00000000;8.74348259;
23779839;57.3;19.5;0;0;0;16.6;0;0;0;0;0;0;0;0;0;0;-2;2;54;0;99;-0.001;0;23779745;0;0;0;0;0.912;578.527;0;0;0;-0.013;0.013;1;23779745;0;0;0;0;0;0;0;0;0;23777000;54.69464563;25.25035632;132.30764230;0.00000000;0.00000000;8.00000000;8.74348259;
23779936;57.2;19.6;0;0;0;16.6;0;0;0;0;0;0;0;0;0;0;-2;2;54;0;99;-0.001;0;23779888;0;0;0;0;0.912;578.525;0;0;0;-0.013;0.013;1;23779889;0;0;0;0;0;0;0;0;0;23777000;54.69464563;25.25035632;132.30764230;0.00000000;0.00000000;8.00000000;8.74348259;
23780034;57.3;19.5;0;0;0;16.7;0;0;0;0;0;0;0;0;0;0;-2;2;54;0;99;0;0;23779986;0;0;0;0;0.912;578.532;0;0;0;-0.013;0.013;1;23779987;0;0;0;0;0;0;0;0;0;23777000;54.69464563;25.25035632;132.30764230;0.00000000;0.00000000;8.00000000;8.74348259;
23780131;57.2;19.6;0;0;0;16.6;0;0;0;0;0;0;0;0;0;0;-2;2;54;0;99;0;0.001;23780087;0;0;0;0;0.912;578.499;0;0;0;-0.013;0.013;1;23780087;0;0;0;0;0;0;0;0;0;23777000;54.69464563;25.25035632;132.30764230;0.00000000;0.00000000;8.00000000;8.74348259;
23780231;57.3;19.6;0;0;0;16.6;0;0;0;0;0;0;0;0;0;0;-2;2;54;0;99;0;0.001;23780185;0;0;0;0;0.912;578.493;0;0;0;-0.013;0.013;1;23780185;0;0;0;0;0;0;0;0;0;23777000;54.69464563;25.25035632;132.30764230;0.00000000;0.00000000;8.00000000;8.74348259;
23780327;57.4;19.5;0;0;0;16.6;0;0;0;0;0;0;0;0;0;0;-2;2;54;0;99;0;0.001;23780279;0;0;0;0;0.912;578.458;0;0;0;-0.013;0.013;1;23780279;0;0;0;0;0;0;0;0;0;23777000;54.69464563;25.25035632;132.30764230;0.00000000;0.00000000;8.00000000;8.74348259;
23780430;57.3;19.5;0;0;0;16.7;0;0;0;0;0;0;0;0;0;0;-2;2;54;0;99;0;0.001;23780377;0;0;0;0;0.912;578.422;0;0;0;-0.013;0.013;1;23780378;0;0;0;0;0;0;0;0;0;23780000;54.69465618;25.25036186;134.08742040;0.00000000;0.00000000;8.00000000;8.35875702;
23780524;57.2;19.5;0;0;0;16.8;0;0;0;0;0;0;0;0;0;0;-2;2;54;0;99;0;0;23780476;0;0;0;0;0.912;578.423;0;0;0;-0.013;0.013;1;23780476;0;0;0;0;0;0;0;0;0;23780000;54.69465618;25.25036186;134.08742040;0.00000000;0.00000000;8.00000000;8.35875702;
23780672;57.3;19.5;0;0;0;16.7;0;0;0;0;0;0;0;0;0;0;-2;2;54;0;99;0;0;23780576;0;0;0;0;0.912;578.435;0;0;0;-0.013;0.013;1;23780576;0;0;0;0;0;0;0;0;0;23780000;54.69465618;25.25036186;134.08742040;0.00000000;0.00000000;8.00000000;8.35875702;
23780765;57.2;19.5;0;0;0;16.7;0;0;0;0;0;0;0;0;0;0;-2;2;54;0;99;-0.001;0;23780674;0;0;0;0;0.912;578.42;0;0;0;-0.013;0.013;1;23780719;0;0;0;0;0;0;0;0;0;23780000;54.69465618;25.25036186;134.08742040;0.00000000;0.00000000;8.00000000;8.35875702;
23780917;57.2;19.6;0;0;0;16.7;0;0;0;0;0;0;0;0;0;0;-2;2;54;0;99;-0.001;0;23780871;0;0;0;0;0.912;578.381;0;0;0;-0.013;0.013;1;23780872;0;0;0;0;0;0;0;0;0;23780000;54.69465618;25.25036186;134.08742040;0.00000000;0.00000000;8.00000000;8.35875702;
23781117;57.3;19.5;0;0;0;16.7;0;0;0;0;0;0;0;0;0;0;-2;2;54;0;99;0;0;23780967;0;0;0;0;0.912;578.361;0;0;0;-0.013;0.013;1;23781062;0;0;0;0;0;0;0;0;0;23780000;54.69465618;25.25036186;134.08742040;0.00000000;0.00000000;8.00000000;8.35875702;
23781312;57.2;19.5;0;0;0;16.7;0;0;0;0;0;0;0;0;0;0;-2;2;54;0;99;-0.001;0;23781118;0;0;0;0;0.912;578.338;0;0;0;-0.013;0.013;1;23781256;0;0;0;0;0;0;0;0;0;23780000;54.69465618;25.25036186;134.08742040;0.00000000;0.00000000;8.00000000;8.35875702;
23781460;57.3;19.5;0;0;0;16.7;0;0;0;0;0;0;0;0;0;0;-2;2;54;0;99;0;0;23781313;0;0;0;0;0.912;578.269;0;0;0;-0.013;0.013;1;23781403;0;0;0;0;0;0;0;0;0;23781000;54.69465983;25.25036269;134.03166186;0.00000000;0.00000000;8.00000000;8.21947861;
23781597;57.3;19.6;0;0;0;16.7;0;0;0;0;0;0;0;0;0;0;-2;2;54;0;99;0;0;23781461;0;0;0;0;0.912;578.262;0;0;0;-0.013;0.013;1;23781551;0;0;0;0;0;0;0;0;0;23781000;54.69465983;25.25036269;134.03166186;0.00000000;0.00000000;8.00000000;8.21947861;
23781748;57.2;19.6;0;0;0;16.7;0;0;0;0;0;0;0;0;0;0;-2;2;54;0;99;0;0;23781598;0;0;0;0;0.912;578.272;0;0;0;-0.013;0.013;1;23781648;0;0;0;0;0;0;0;0;0;23781000;54.69465983;25.25036269;134.03166186;0.00000000;0.00000000;8.00000000;8.21947861;
23781888;57.2;19.6;0;0;0;16.5;0;0;0;0;0;0;0;0;0;0;-2;2;54;0;99;0;0.001;23781750;0;0;0;0;0.912;578.274;0;0;0;-0.013;0.013;1;23781750;0;0;0;0;0;0;0;0;0;23781000;54.69465983;25.25036269;134.03166186;0.00000000;0.00000000;8.00000000;8.21947861;
23782032;57.3;19.5;0;0;0;16.7;0;0;0;0;0;0;0;0;0;0;-2;2;54;0;99;0;0;23781890;0;0;0;0;0.912;578.251;0;0;0;-0.013;0.013;1;23781891;0;0;0;0;0;0;0;0;0;23781000;54.69465983;25.25036269;134.03166186;0.00000000;0.00000000;8.00000000;8.21947861;
23782130;57.3;19.6;0;0;0;16.6;0;0;0;0;0;0;0;0;0;0;-2;2;54;0;99;-0.001;0;23782036;0;0;0;0;0.911;578.204;0;0;0;-0.013;0.013;1;23782036;0;0;0;0;0;0;0;0;0;23781000;54.69465983;25.25036269;134.03166186;0.00000000;0.00000000;8.00000000;8.21947861;
23782424;57.2;19.5;0;0;0;16.7;0;0;0;0;0;0;0;0;0;0;-2;2;54;0;99;0;0.001;23782133;0;0;0;0;0.911;578.231;0;0;0;-0.013;0.013;1;23782133;0;0;0;0;0;0;0;0;0;23781000;54.69465983;25.25036269;134.03166186;0.00000000;0.00000000;8.00000000;8.21947861;
23782525;57.3;19.5;0;0;0;16.7;0;0;0;0;0;0;0;0;0;0;-2;2;54;0;99;0;0.001;23782424;0;0;0;0;0.912;578.244;0;0;0;-0.013;0.013;1;23782424;0;0;0;0;0;0;0;0;0;23782000;54.69466124;25.25036069;133.98685531;0.00000000;0.00000000;8.00000000;8.07638359;
23782617;57.3;19.6;0;0;0;16.8;0;0;0;0;0;0;0;0;0;0;-2;2;54;0;99;-0.001;0;23782527;0;0;0;0;0.912;578.26;0;0;0;-0.013;0.013;1;23782527;0;0;0;0;0;0;0;0;0;23782000;54.69466124;25.25036069;133.98685531;0.00000000;0.00000000;8.00000000;8.07638359;
23782714;57.2;19.6;0;0;0;16.8;0;0;0;0;0;0;0;0;0;0;-2;2;54;0;99;0;0.001;23782620;0;0;0;0;0.912;578.275;0;0;0;-0.013;0.013;1;23782620;0;0;0;0;0;0;0;0;0;23782000;54.69466124;25.25036069;133.98685531;0.00000000;0.00000000;8.00000000;8.07638359;
23782858;57.3;19.6;0;0;0;16.7;0;0;0;0;0;0;0;0;0;0;-2;2;54;0;99;0;0.001;23782717;0;0;0;0;0.912;578.273;0;0;0;-0.013;0.013;1;23782718;0;0;0;0;0;0;0;0;0;23782000;54.69466124;25.25036069;133.98685531;0.00000000;0.00000000;8.00000000;8.07638359;
23783007;57.2;19.6;0;0;0;16.6;0;0;0;0;0;0;0;0;0;0;-2;2;54;0;99;0;0.001;23782861;0;0;0;0;0.912;578.275;0;0;0;-0.013;0.013;1;23782861;0;0;0;0;0;0;0;0;0;23782000;54.69466124;25.25036069;133.98685531;0.00000000;0.00000000;8.00000000;8.07638359;
23783202;57.2;19.6;0;0;0;16.7;0;0;0;0;0;0;0;0;0;0;-2;2;54;0;99;0;0.001;23783010;0;0;0;0;0.912;578.293;0;0;0;-0.013;0.013;1;23783010;0;0;0;0;0;0;0;0;0;23782000;54.69466124;25.25036069;133.98685531;0.00000000;0.00000000;8.00000000;8.07638359;
23783444;57.2;19.6;0;0;0;16.5;0;0;0;0;0;0;0;0;0;0;-2;2;54;0;99;0;0;23783206;0;0;0;0;0.912;578.27;0;0;0;-0.013;0.013;1;23783207;0;0;0;0;0;0;0;0;0;23783000;54.69466294;25.25036053;133.55042743;0.00000000;0.00000000;8.00000000;7.95474720;
23783543;57.3;19.6;0;0;0;16.5;0;0;0;0;0;0;0;0;0;0;-2;2;54;0;99;0;0.001;23783447;0;0;0;0;0.911;578.216;0;0;0;-0.013;0.013;1;23783447;0;0;0;0;0;0;0;0;0;23783000;54.69466294;25.25036053;133.55042743;0.00000000;0.00000000;8.00000000;7.95474720;
23783641;57.2;19.5;0;0;0;16.6;0;0;0;0;0;0;0;0;0;0;-2;2;54;0;99;0;0.001;23783547;0;0;0;0;0.911;578.212;0;0;0;-0.013;0.013;1;23783547;0;0;0;0;0;0;0;0;0;23783000;54.69466294;25.25036053;133.55042743;0.00000000;0.00000000;8.00000000;7.95474720;
23783784;57.2;19.6;0;0;0;16.6;0;0;0;0;0;0;0;0;0;0;-2;2;54;0;99;0;0.001;23783645;0;0;0;0;0.911;578.223;0;0;0;-0.013;0.013;1;23783645;0;0;0;0;0;0;0;0;0;23783000;54.69466294;25.25036053;133.55042743;0.00000000;0.00000000;8.00000000;7.95474720;
23783885;57.2;19.6;0;0;0;16.6;0;0;0;0;0;0;0;0;0;0;-2;2;54;0;99;0;0;23783788;0;0;0;0;0.912;578.26;0;0;0;-0.013;0.013;1;23783789;0;0;0;0;0;0;0;0;0;23783000;54.69466294;25.25036053;133.55042743;0.00000000;0.00000000;8.00000000;7.95474720;
23783982;57.3;19.5;0;0;0;16.7;0;0;0;0;0;0;0;0;0;0;-2;2;54;0;99;0;0.001;23783889;0;0;0;0;0.912;578.242;0;0;0;-0.013;0.013;1;23783889;0;0;0;0;0;0;0;0;0;23783000;54.69466294;25.25036053;133.55042743;0.00000000;0.00000000;8.00000000;7.95474720;
23784080;57.2;19.6;0;0;0;16.6;0;0;0;0;0;0;0;0;0;0;-2;2;54;0;99;0;0.001;23783986;0;0;0;0;0.911;578.23;0;0;0;-0.013;0.013;1;23783986;0;0;0;0;0;0;0;0;0;23783000;54.69466294;25.25036053;133.55042743;0.00000000;0.00000000;8.00000000;7.95474720;
23784226;57.2;19.6;0;0;0;16.4;0;0;0;0;0;0;0;0;0;0;-2;2;54;0;99;0;0.001;23784084;0;0;0;0;0.911;578.204;0;0;0;-0.013;0.013;1;23784084;0;0;0;0;0;0;0;0;0;23783000;54.69466294;25.25036053;133.55042743;0.00000000;0.00000000;8.00000000;7.95474720;
23784370;57.3;19.6;0;0;0;16.4;0;0;0;0;0;0;0;0;0;0;-2;2;54;0;99;0;0.001;23784229;0;0;0;0;0.912;578.261;0;0;0;-0.013;0.013;1;23784229;0;0;0;0;0;0;0;0;0;23784000;54.69466294;25.25036053;133.00123071;0.00000000;0.00000000;8.00000000;7.83883667;
23784565;57.3;19.6;0;0;0;16.5;0;0;0;0;0;0;0;0;0;0;-2;2;54;0;99;0;0.002;23784374;0;0;0;0;0.912;578.243;0;0;0;-0.013;0.013;1;23784374;0;0;0;0;0;0;0;0;0;23784000;54.69466294;25.25036053;133.00123071;0.00000000;0.00000000;8.00000000;7.83883667;
23784664;57.2;19.6;0;0;0;16.5;0;0;0;0;0;0;0;0;0;0;-2;2;54;0;99;0;0.001;23784568;0;0;0;0;0.912;578.253;0;0;0;-0.013;0.013;1;23784568;0;0;0;0;0;0;0;0;0;23784000;54.69466294;25.25036053;133.00123071;0.00000000;0.00000000;8.00000000;7.83883667;
23784810;57.2;19.6;0;0;0;16.5;0;0;0;0;0;0;0;0;0;0;-2;2;54;0;99;0;0.002;23784667;0;0;0;0;0.912;578.322;0;0;0;-0.013;0.013;1;23784668;0;0;0;0;0;0;0;0;0;23784000;54.69466294;25.25036053;133.00123071;0.00000000;0.00000000;8.00000000;7.83883667;
23784911;57.3;19.7;0;0;0;16.4;0;0;0;0;0;0;0;0;0;0;-2;2;54;0;99;0;0.001;23784814;0;0;0;0;0.912;578.412;0;0;0;-0.013;0.013;1;23784814;0;0;0;0;0;0;0;0;0;23784000;54.69466294;25.25036053;133.00123071;0.00000000;0.00000000;8.00000000;7.83883667;
